[{"id":"evt-paleni-carodejnic-2026","type":"akce","slug":"paleni-carodejnic-2026-04-30","title":"Pálení čarodějnic","category":"zabava","subcategory":"oslavy","lat":49.8568,"lng":14.5576,"address":"Hasičská zbrojnice, Krhanice"},{"id":"evt-kaceni-maje-2026","type":"akce","slug":"kaceni-maje-2026-05-30","title":"Kácení máje","category":"zabava","subcategory":"oslavy","lat":49.8568,"lng":14.5576,"address":"Hasičská zbrojnice, Krhanice"},{"id":"evt-detsky-den-2026","type":"akce","slug":"detsky-den-2026-06-06","title":"Dětský den","category":"deti-rodina","subcategory":"detske-dny","lat":49.8561,"lng":14.5574,"address":"Náves Krhanice"},{"id":"evt-anenska-zabava-2026","type":"akce","slug":"anenska-zabava-2026-07-25","title":"Anenská zábava","category":"zabava","subcategory":"tanecni-zabavy","lat":49.8557,"lng":14.558,"address":"Sokolovna Krhanice"},{"id":"evt-hasicsky-ples-2026","type":"akce","slug":"hasicsky-ples-2026-08-22","title":"Hasičský ples pod hvězdami","category":"zabava","subcategory":"plesy","lat":49.8568,"lng":14.5576,"address":"Hasičská zbrojnice, Krhanice"},{"id":"evt-letni-kino-2026","type":"akce","slug":"letni-kino-2026-08-28","title":"Letní kino","category":"kultura","subcategory":"kino","lat":49.8561,"lng":14.5574,"address":"Náves Krhanice"},{"id":"evt-cervnove-diskoteky-2026","type":"akce","slug":"cervnove-diskoteky-pro-deti-a-dospele-2026-06-13","title":"Červnové diskotéky pro děti a dospělé","category":"zabava","subcategory":"tanecni-zabavy","address":"Krhanice (místo upřesní pořadatel)"},{"id":"evt-kavarnicka-seniori-2026","type":"akce","slug":"kavarnicka-pro-seniory-2026-06-19","title":"Kavárnička pro seniory","category":"zabava","subcategory":"oslavy","address":"Krhanice (místo upřesní pořadatel)"},{"id":"evt-zajezd-divadlo-2026","type":"akce","slug":"zajezd-do-divadla-palace-2026-06-24","title":"Zájezd do divadla Palace","category":"kultura","subcategory":"divadlo","lat":50.0853,"lng":14.4271,"address":"Divadlo Palace, Praha"},{"id":"evt-krhanice-open-air-2026","type":"akce","slug":"krhanice-open-air-2026-08-01","title":"Krhanice Open Air","category":"kultura","subcategory":"festivaly","address":"Krhanice"},{"id":"evt-sber-textilu-tynec-2026","type":"akce","slug":"sber-textilu-pro-diakonii-broumov","title":"Sběr textilu pro Diakonii Broumov","category":"priroda","subcategory":"brigady","lat":49.8369,"lng":14.5949,"address":"Týnec nad Sázavou, Městský úřad"},{"id":"evt-ferova-snidane-tynec-2026","type":"akce","slug":"ferova-snidane-tynec","title":"Férová snídaně","category":"zabava","subcategory":"jarmarky","lat":49.8369,"lng":14.5949,"address":"Týnec nad Sázavou, zahrada Kulturního centra"},{"id":"evt-tvoreni-dne-matek-2026","type":"akce","slug":"tvoreni-ke-dni-matek","title":"Tvoření ke Dni matek","category":"deti-rodina","subcategory":"dilny-pro-deti","lat":49.8369,"lng":14.5949,"address":"Týnec nad Sázavou, hospůdka K Náklí"},{"id":"evt-swap-kvetin-tynec-2026","type":"akce","slug":"swap-kvetin-v-knihovne","title":"Swap květin v knihovně","category":"zabava","subcategory":"jarmarky","lat":49.8369,"lng":14.5949,"address":"Týnec nad Sázavou, knihovna Kulturního centra"},{"id":"evt-pribeh-vejiru-tynec-2026","type":"akce","slug":"pribeh-vejiru","title":"Příběh vějířů","category":"kultura","subcategory":"vystavy","lat":49.8369,"lng":14.5949,"address":"Týnec nad Sázavou, hrad a muzeum"},{"id":"evt-kreativni-obrazy-tynec-2026","type":"akce","slug":"kreativni-obrazy-tynec","title":"Kreativní obrazy","category":"kultura","subcategory":"vystavy","lat":49.8369,"lng":14.5949,"address":"Týnec nad Sázavou, velká galerie městského muzea"},{"id":"evt-sazavenkov-carodejnice-2026","type":"akce","slug":"sazavenkov-v-risi-carodejnic","title":"Sázavěnkov v říši čarodějnic","category":"kultura","subcategory":"vystavy","lat":49.8369,"lng":14.5949,"address":"Týnec nad Sázavou, hrad a muzeum"},{"id":"evt-stripky-tynecka-2026","type":"akce","slug":"stripky-z-historie-tynecka","title":"Střípky z historie Týnecka","category":"kultura","subcategory":"vystavy","lat":49.8369,"lng":14.5949,"address":"Týnec nad Sázavou, hrad a muzeum"},{"id":"evt-tynecka-kamenina-2026","type":"akce","slug":"tynecka-kamenina","title":"Týnecká kamenina","category":"kultura","subcategory":"vystavy","lat":49.8369,"lng":14.5949,"address":"Týnec nad Sázavou, hrad a muzeum"},{"id":"evt-einstein-jilove-2026","type":"akce","slug":"vystava-einstein-jilove","title":"Albert Einstein: Člověk a genius","category":"kultura","subcategory":"vystavy","lat":49.8983,"lng":14.4942,"address":"Jílové u Prahy, Regionální muzeum, Masarykovo nám. 16"},{"id":"evt-ora-et-labora-jilove-2026","type":"akce","slug":"ora-et-labora-jilove","title":"Ora et labora, panelová výstava","category":"kultura","subcategory":"vystavy","lat":49.8983,"lng":14.4942,"address":"Jílové u Prahy, park před Regionálním muzeem"},{"id":"evt-konopiste-ruzova-zahrada-2026","type":"akce","slug":"vecerni-prohlidka-konopiste-ruzova-zahrada","title":"Večerní prohlídka: Exotika v Růžové zahradě","category":"kultura","subcategory":"prohlidky","lat":49.782,"lng":14.6562,"address":"Zámek Konopiště, Růžová zahrada"},{"id":"evt-konopiste-waffen-ss-2026","type":"akce","slug":"konopiste-velitelstvi-waffen-ss","title":"Konopiště, velitelství Waffen-SS","category":"kultura","subcategory":"prohlidky","lat":49.782,"lng":14.6562,"address":"Zámek Konopiště"},{"id":"evt-trziste-zajeci-2026","type":"akce","slug":"trziste-v-zajeci-2026","title":"Tržiště v Zaječí","category":"zabava","subcategory":"jarmarky","lat":49.79,"lng":14.685,"address":"Zaječí (osada Bystřice u Benešova), náves"},{"id":"evt-cesky-pohar-vodaku-2026","type":"akce","slug":"cesky-pohar-vodaku-sazava-2026","title":"Český pohár vodáků na Sázavě","category":"sport","subcategory":"zavody","lat":49.8369,"lng":14.5949,"address":"Týnec nad Sázavou, řeka Sázava"},{"id":"evt-muzejni-noc-tynec-2026","type":"akce","slug":"muzejni-noc-tynec-2026-06-05","title":"Muzejní noc na hradě Týnec","category":"kultura","subcategory":"prohlidky","lat":49.8369,"lng":14.5949,"address":"Týnec nad Sázavou, hrad a muzeum"},{"id":"evt-tynecka-neckyada-2026","type":"akce","slug":"tynecka-neckyada-2026-08-15","title":"Týnecká neckyáda","category":"sport","subcategory":"zavody","lat":49.8369,"lng":14.5949,"address":"Týnec nad Sázavou, řeka Sázava"},{"id":"pl-hasicska-zbrojnice-krhanice","type":"spolky","slug":"sdh-krhanice","title":"SDH Krhanice (Sbor dobrovolných hasičů)","category":"tradice-komunita","subcategory":"hasicsky-sbor","address":"Krhanice (hasičská zbrojnice, přesnou adresu doplníme)"},{"id":"sv-tj-sokol","type":"spolky","slug":"tj-sokol-krhanice","title":"TJ Sokol Krhanice","category":"sport","subcategory":"sokol","address":"Krhanice (sokolské hřiště, přesnou adresu doplníme)"},{"id":"sv-aktivni-krhanice","type":"spolky","slug":"aktivni-krhanice","title":"Aktivní Krhanice, z.s.","category":"tradice-komunita","subcategory":"sousedsky","lat":49.8552575,"lng":14.557905,"address":"Krhanice 35, 257 42"},{"id":"sv-karhany","type":"spolky","slug":"karhany","title":"Karhany, z.s.","category":"tradice-komunita","subcategory":"sousedsky","lat":49.8560226,"lng":14.56012,"address":"Krhanice 197, 257 42"},{"id":"sv-nase-krhanice","type":"spolky","slug":"nase-krhanice","title":"Naše Krhanice, z.s.","category":"tradice-komunita","subcategory":"sousedsky","address":"Krhanice 252, 257 42"},{"id":"sv-fun-carving-club","type":"spolky","slug":"czech-fun-carving-club","title":"Czech Fun Carving Club","category":"sport","subcategory":"ostatni-sport","address":"Krhanice 37, 257 42"},{"id":"sv-taekwon-do","type":"spolky","slug":"skola-taekwon-do","title":"Škola TAEKWON-DO I.T.F. GE-BAEK HOSIN SOOL","category":"sport","subcategory":"bojove-sporty","address":"Krhanice 149, 257 42 (tělocvična ZŠ)"},{"id":"sv-crazy-boys","type":"spolky","slug":"crazy-boys-kapela","title":"Crazy Boys","category":"kultura-umeni","subcategory":"hudebni","address":"Krhanice, 257 42"},{"id":"pl-konopiste","type":"mista","slug":"zamek-konopiste","title":"Zámek Konopiště","category":"pamatky","subcategory":"hrady-zamky","lat":49.7758,"lng":14.6611,"address":"Konopiště, 256 01 Benešov"},{"id":"pl-zboreny-kostelec","type":"mista","slug":"zboreny-kostelec","title":"Zbořený Kostelec","category":"pamatky","subcategory":"hrady-zamky","lat":49.85434,"lng":14.591563,"address":"Krhanice 257 42 (lokalita Zbořený Kostelec)"},{"id":"pl-tynecky-hrad","type":"mista","slug":"tynecky-hrad-a-muzeum","title":"Týnecký hrad a muzeum","category":"pamatky","subcategory":"hrady-zamky","lat":49.8369,"lng":14.5949,"address":"Nádvoří Adama Hodějovského 48, 257 41 Týnec nad Sázavou"},{"id":"pl-zlenice","type":"mista","slug":"zricenina-zlenice","title":"Zřícenina hradu Zlenice (Hláska)","category":"pamatky","subcategory":"hrady-zamky","lat":49.895,"lng":14.73,"address":"Čerčany / Senohraby (Posázaví)"},{"id":"pl-stola-v-halirich","type":"mista","slug":"stola-v-halirich","title":"Štola v Halířích","category":"pamatky","subcategory":"historicke-budovy","lat":49.88423,"lng":14.51346,"address":"Halíře u Jílového u Prahy"},{"id":"pl-kostel-simon-juda-tynec","type":"mista","slug":"kostel-svateho-simona-a-judy-tynec","title":"Kostel sv. Šimona a Judy","category":"pamatky","subcategory":"sakralni-stavby","lat":49.8369,"lng":14.5949,"address":"Týnec nad Sázavou (centrum)"},{"id":"pl-kostel-porici","type":"mista","slug":"kostel-svateho-petra-a-pavla-porici","title":"Kostel sv. Petra a Pavla v Poříčí nad Sázavou","category":"pamatky","subcategory":"sakralni-stavby","lat":49.84,"lng":14.69,"address":"Benešovská, 257 21 Poříčí nad Sázavou"},{"id":"pl-vojenske-muzeum-lesany","type":"mista","slug":"vojenske-muzeum-lesany","title":"Vojenské muzeum Lešany","category":"kultura","subcategory":"muzea","lat":49.7847,"lng":14.4944,"address":"Lešany 1, 257 42 Krhanice"},{"id":"pl-muzeum-jilove","type":"mista","slug":"regionalni-muzeum-jilove","title":"Regionální muzeum v Jílovém u Prahy","category":"kultura","subcategory":"muzea","lat":49.8983,"lng":14.4942,"address":"Jílové u Prahy, Masarykovo nám. 16"},{"id":"sv-knihovna-krhanice","type":"mista","slug":"obecni-knihovna-krhanice","title":"Obecní knihovna Krhanice","category":"kultura","subcategory":"knihovny","lat":49.8569238,"lng":14.5596988,"address":"Krhanice 46, 257 42 (budova obecního úřadu)"},{"id":"pl-kc-tynec","type":"mista","slug":"kulturni-centrum-tynec","title":"Kulturní centrum Týnec","category":"kultura","subcategory":"kulturni-domy","lat":49.8369,"lng":14.5949,"address":"Klusáčkova 2, 257 41 Týnec nad Sázavou"},{"id":"pl-rozhledna-pepr","type":"mista","slug":"rozhledna-pepr","title":"Rozhledna Pepř","category":"priroda-krajina","subcategory":"vyhlidky","lat":49.88714,"lng":14.48325,"address":"kopec Pepř u Jílového u Prahy"},{"id":"pl-rozhledna-nesteticka-hora","type":"mista","slug":"rozhledna-nesteticka-hora","title":"Rozhledna Neštětická hora","category":"priroda-krajina","subcategory":"vyhlidky","lat":49.76913,"lng":14.56843,"address":"Neštětická hora u Neveklova"},{"id":"pl-vyhlidka-trestibok","type":"mista","slug":"vyhlidka-trestibok","title":"Vyhlídka Třeštibok","category":"priroda-krajina","subcategory":"vyhlidky","lat":49.87695,"lng":14.45218,"address":"kopec Zahrádka u Petrova"},{"id":"pl-vyhlidka-maj","type":"mista","slug":"vyhlidka-maj","title":"Vyhlídka Máj","category":"priroda-krajina","subcategory":"vyhlidky","lat":49.83106,"lng":14.45602,"address":"Teletín u Krňan"},{"id":"pl-smetanova-vyhlidka","type":"mista","slug":"smetanova-vyhlidka","title":"Smetanova vyhlídka","category":"priroda-krajina","subcategory":"vyhlidky","lat":49.84844,"lng":14.4522,"address":"Krňany (pod vrcholem Kletečné)"},{"id":"pl-panska-vyhlidka","type":"mista","slug":"panska-vyhlidka","title":"Panská vyhlídka","category":"priroda-krajina","subcategory":"vyhlidky","lat":49.875053,"lng":14.564747,"address":"Krhanice 257 42 (severní katastr obce)"},{"id":"pl-naucna-stezka-jilovske-zlate-doly","type":"mista","slug":"naucna-stezka-jilovske-zlate-doly","title":"Naučná stezka Jílovské zlaté doly","category":"priroda-krajina","subcategory":"naucne-stezky","lat":49.89479,"lng":14.49325,"address":"Jílové u Prahy (start u kostela sv. Vojtěcha)"},{"id":"pl-naucna-stezka-svatojanske-proudy","type":"mista","slug":"naucna-stezka-svatojanske-proudy","title":"Naučná stezka Svatojánské proudy","category":"priroda-krajina","subcategory":"naucne-stezky","lat":49.85163,"lng":14.40626,"address":"Štěchovice (start)"},{"id":"pl-posazavska-stezka","type":"mista","slug":"posazavska-stezka","title":"Posázavská stezka","category":"priroda-krajina","subcategory":"naucne-stezky","lat":49.8561,"lng":14.5574,"address":"Krhanice (úsek stezky podél Sázavy)"},{"id":"pl-kopec-dabel","type":"mista","slug":"kopec-dabel-stred-cech","title":"Kopec Ďábel, geometrický střed Čech","category":"priroda-krajina","subcategory":"lesy-stezky","lat":49.89048,"lng":14.43434,"address":"u Petrova (přírodní park Střed Čech)"},{"id":"pl-vlci-rokle","type":"mista","slug":"vlci-rokle","title":"Vlčí rokle","category":"priroda-krajina","subcategory":"lesy-stezky","lat":49.874643,"lng":14.531274,"address":"Krhanice 257 42 (lokalita Vlčí rokle, severozápadní katastr)"},{"id":"pl-sazava-tynec","type":"mista","slug":"reka-sazava-usek-tynec","title":"Řeka Sázava, úsek Týnec","category":"priroda-krajina","subcategory":"rybniky-vodni-plochy","lat":49.8369,"lng":14.5949,"address":"Týnec nad Sázavou (řeka Sázava)"},{"id":"pl-tank-pro-deti","type":"mista","slug":"tank-pro-deti","title":"Tank pro děti","category":"rekreace","subcategory":"detska-hriste","lat":49.855295,"lng":14.541899,"address":"Krhanice 257 42"},{"id":"pl-kemp-sazava","type":"mista","slug":"kemp-sazava","title":"Kemp Sázava","category":"rekreace","subcategory":"piknikova-mista","address":"Sázava ev.č. 395, 285 06 Sázava"},{"id":"pl-penzion-club-demon","type":"mista","slug":"penzion-club-demon-prosecnice","title":"Penzion Club Démon","category":"rekreace","subcategory":"ohniste","address":"Prosečnice 50, 257 42"},{"id":"pl-posazavsky-motoracek","type":"mista","slug":"posazavsky-motoracek","title":"Posázavský motoráček","category":"rekreace","subcategory":"piknikova-mista","lat":49.8561,"lng":14.5574,"address":"Stanice Krhanice (na trati Čerčany–Světlá)"},{"id":"pl-bisport-tynec","type":"mista","slug":"bisport-pujcovna-lodi-tynec","title":"Bisport, půjčovna lodí a kol","category":"rekreace","subcategory":"piknikova-mista","lat":49.8369,"lng":14.5949,"address":"Ing. Fr. Janečka 511, 257 41 Týnec nad Sázavou"},{"id":"sv-alzabox-krhanice","type":"mista","slug":"alzabox-krhanice","title":"AlzaBox Krhanice","category":"prakticka-mista","subcategory":"posta","lat":49.8533701,"lng":14.5575275,"address":"Krhanice 149, 257 42 (u ZŠ)"},{"id":"pl-hospoda-na-hristi","type":"gastro","slug":"hospoda-na-hristi","title":"Hospoda Na hřišti","category":"hospody-bary","subcategory":"pivnice","lat":49.8557,"lng":14.558,"address":"Krhanice (sokolské hřiště, přesnou adresu doplníme)"},{"id":"pl-restaurace-na-zastavce","type":"gastro","slug":"restaurace-na-zastavce-prosecnice","title":"Restaurace Na zastávce","category":"restaurace","subcategory":"ceska-kuchyne","lat":49.795,"lng":14.592,"address":"Prosečnice 19, 257 42"},{"id":"pl-pohostinstvi-drevak","type":"gastro","slug":"pohostinstvi-drevak-prosecnice","title":"Pohostinství Dřevák","category":"hospody-bary","subcategory":"pivnice","lat":49.7965,"lng":14.5905,"address":"Prosečnice (část obce Krhanice), 257 42"},{"id":"rm-smisene-zbozi","type":"obchody","slug":"smisene-zbozi-krhanice","title":"Smíšené zboží Krhanice","category":"potraviny-napoje","subcategory":"samoobsluhy","lat":49.855353,"lng":14.557239,"address":"Krhanice 13, 257 42"},{"id":"rm-pekarstvi-novotni","type":"obchody","slug":"rodinne-pekarstvi-novotni","title":"Rodinné pekařství Novotní (provozovna U Krkovičky)","category":"pekarstvi-cukrarstvi","subcategory":"pekarny","lat":49.856555,"lng":14.559594,"address":"Krhanice, hospoda U Krkovičky (naproti OÚ)"},{"id":"sv-jarno-pekarna","type":"obchody","slug":"jarno-pekarna","title":"JARNO, s.r.o., rodinná pekárna","category":"pekarstvi-cukrarstvi","subcategory":"pekarny","address":"Krhanice 62, 257 42"},{"id":"sv-faho-knedliky","type":"obchody","slug":"faho-vyroba-prodej","title":"FAHO výroba-prodej a.s.","category":"potraviny-napoje","subcategory":"regionalni-produkty","lat":49.8569,"lng":14.5577,"address":"Krhanice 7, 257 42"},{"id":"rm-keramika-jordanova","type":"obchody","slug":"keramika-marketa-jordanova","title":"Keramika Markéta Jordánová","category":"specializovane","subcategory":"keramika-remeslo","lat":49.8489976,"lng":14.5505675,"address":"Krhanice 125, 257 42"},{"id":"rm-mydlarna-leontynka","type":"obchody","slug":"mydlarna-leontynka","title":"Mýdlárna Leontýnka","category":"specializovane","subcategory":"keramika-remeslo","lat":49.8537888,"lng":14.5544963,"address":"Krhanice 238, 257 42"},{"id":"sv-porcelan-mulier","type":"obchody","slug":"porcelanova-vyroba-mulier","title":"Porcelánová výroba Mulier, s.r.o.","category":"specializovane","subcategory":"keramika-remeslo","address":"Krhanice 71, 257 42"},{"id":"sv-vinovintage","type":"obchody","slug":"vinovintage","title":"Vinovintage.cz, online vinotéka","category":"potraviny-napoje","subcategory":"vinoteky","address":"Krhanice 20, 257 42"},{"id":"sv-denny-rose","type":"obchody","slug":"denny-rose","title":"DENNY ROSE","category":"moda","subcategory":"odevy","address":"Krhanice 84, 257 42"},{"id":"sv-zahradni-studio-strnadova","type":"obchody","slug":"zahradni-studio-strnadova","title":"Zahradní studio Strnadová","category":"pro-domov","subcategory":"zahradnictvi","address":"Krhanice 291, 257 42"},{"id":"sv-abakron","type":"obchody","slug":"abakron-zulovy-lom","title":"ABAKRON, s.r.o.","category":"pro-domov","subcategory":"stavebniny","address":"Prosečnice 47, 257 42"},{"id":"sv-kamen-zbraslav","type":"obchody","slug":"kamenolom-krhanice-kamen-zbraslav","title":"Kamenolom Krhanice, KÁMEN Zbraslav","category":"pro-domov","subcategory":"stavebniny","address":"Prosečnice, 257 42"},{"id":"sv-zs-krhanice","type":"sluzby","slug":"zakladni-skola-krhanice","title":"Základní škola Krhanice","category":"vzdelavani","subcategory":"zakladni-skola","lat":49.8533701,"lng":14.5575275,"address":"Krhanice 149, 257 42"},{"id":"sv-ms-krhanice","type":"sluzby","slug":"materska-skola-krhanice","title":"Mateřská škola Krhanice","category":"vzdelavani","subcategory":"materska-skola","address":"Krhanice (poblíž ZŠ)"},{"id":"sv-zpev-hlavnickova","type":"sluzby","slug":"vyuka-zpevu-leona-hlavnickova","title":"Výuka zpěvu, Leona Hlavničková","category":"vzdelavani","subcategory":"kurzy","address":"Krhanice 238, 257 42"},{"id":"sv-ordinace-prakticky-lekar","type":"sluzby","slug":"ordinace-mudr-machacek","title":"MUDr. Tomáš Macháček, praktický lékař","category":"zdravi","subcategory":"prakticky-lekar","lat":49.8513926,"lng":14.550525,"address":"Krhanice 70, 257 42"},{"id":"rm-veterinakrskova","type":"sluzby","slug":"veterinarka-dana-krskova","title":"Veterinářka MVDr. Dana Kršková","category":"zdravi","subcategory":"veterinar","lat":49.8560713,"lng":14.5537363,"address":"Krhanice 169, 257 42"},{"id":"sv-mikolasova-zubni-lab","type":"sluzby","slug":"marie-mikolasova-zubni-laborator","title":"Marie Mikolášová, zubní laboratoř","category":"zdravi","subcategory":"zubar","address":"Krhanice 188, 257 42"},{"id":"sv-sarlota-resort","type":"sluzby","slug":"sarlota-resort-care","title":"Šarlota Resort & Care","category":"zdravi","subcategory":"fyzioterapie","address":"Prosečnice 10, 257 42"},{"id":"rm-masaze-micova","type":"sluzby","slug":"masaze-kristyna-micova","title":"Sportovní a relaxační masáže Kristýna Míčová","category":"krasa-pece","subcategory":"masaze","lat":49.8556,"lng":14.557,"address":"Krhanice (mobilní)"},{"id":"rm-pilatova-kadernictvi","type":"sluzby","slug":"pilatova-milena-kadernictvi","title":"Milena Pilátová, kadeřnictví","category":"krasa-pece","subcategory":"kadernictvi","lat":49.8571538,"lng":14.5616213,"address":"Krhanice 122, 257 42"},{"id":"sv-kadernictvi-petra-prosecnice","type":"sluzby","slug":"kadernictvi-by-petra-prosecnice","title":"Kadeřnictví by Petra","category":"krasa-pece","subcategory":"kadernictvi","address":"Prosečnice 39, 257 42"},{"id":"sv-pedi-moni","type":"sluzby","slug":"pedi-moni-prosecnice","title":"Pedi-moni","category":"krasa-pece","subcategory":"pedikura","address":"Prosečnice 72, 257 42"},{"id":"rm-velei21","type":"sluzby","slug":"velei-21","title":"VELEI 21","category":"bydleni-stavba","subcategory":"stavebni-firmy","lat":49.8572431,"lng":14.5650591,"address":"Krhanice 293, 257 42"},{"id":"rm-zednictvi-jaros","type":"sluzby","slug":"zednictvi-karel-jaros","title":"Zednictví Karel Jaroš","category":"bydleni-stavba","subcategory":"zednik","lat":49.8596749,"lng":14.5592258,"address":"Krhanice 270, 257 42"},{"id":"rm-bfj-stav","type":"sluzby","slug":"bfj-stav","title":"BFJ stav","category":"bydleni-stavba","subcategory":"stavebni-firmy","lat":49.8528851,"lng":14.5546438,"address":"Krhanice 255, 257 42"},{"id":"rm-tesar-visvarda","type":"sluzby","slug":"jan-visvarda","title":"Jan Višvarda, tesař","category":"bydleni-stavba","subcategory":"klempir","lat":49.8585388,"lng":14.5619913,"address":"Krhanice 260, 257 42"},{"id":"sv-mv-truhlarstvi","type":"sluzby","slug":"mv-truhlarstvi","title":"MV Truhlářství","category":"bydleni-stavba","subcategory":"stavebni-firmy","address":"Krhanice 316, 257 42"},{"id":"sv-okna-blahut","type":"sluzby","slug":"okna-dvere-roman-blahut","title":"Okna a dveře Roman Blahút","category":"bydleni-stavba","subcategory":"sklenari","address":"Krhanice 163, 257 42"},{"id":"rm-alltech","type":"sluzby","slug":"alltech","title":"AllTech, s.r.o.","category":"bydleni-stavba","subcategory":"instalater","lat":49.8607026,"lng":14.5592475,"address":"Krhanice 38, 257 42"},{"id":"sv-instalaterstvi-hudcek","type":"sluzby","slug":"instalaterstvi-jaroslav-hudcek","title":"Instalatérství Jaroslav Hudček","category":"bydleni-stavba","subcategory":"instalater","address":"Krhanice 59, 257 42"},{"id":"sv-energozon","type":"sluzby","slug":"energozon","title":"ENERGOZON","category":"bydleni-stavba","subcategory":"instalater","address":"Krhanice 74, 257 42"},{"id":"rm-elektrosluzba-kozel","type":"sluzby","slug":"ales-kozel-elektrosluzba","title":"Aleš Kozel, Elektroslužba","category":"bydleni-stavba","subcategory":"elektrikar","lat":49.8575813,"lng":14.5607038,"address":"Krhanice 88, 257 42"},{"id":"sv-pin-292","type":"sluzby","slug":"pin-292-fotovoltaika","title":"PIN 292, s.r.o.","category":"bydleni-stavba","subcategory":"elektrikar","address":"Krhanice 236, 257 42"},{"id":"sv-antelek","type":"sluzby","slug":"antelek","title":"ANTELEK","category":"bydleni-stavba","subcategory":"elektrikar","address":"Krhanice 259, 257 42"},{"id":"sv-instalace-anten","type":"sluzby","slug":"instalace-a-servis-anten","title":"Instalace a servis antén","category":"bydleni-stavba","subcategory":"elektrikar","address":"Krhanice 185, 257 42"},{"id":"sv-elektroprace-bozik","type":"sluzby","slug":"elektroprace-jan-bozik","title":"Elektropráce Jan Božík","category":"bydleni-stavba","subcategory":"elektrikar","address":"Krhanice ev.č. 37, 257 42"},{"id":"sv-quad-moto-shop","type":"sluzby","slug":"quad-moto-shop","title":"QUAD-MOTO SHOP","category":"auto-doprava","subcategory":"autoservis","address":"Krhanice 16, 257 42"},{"id":"sv-autodilna-bazant","type":"sluzby","slug":"autodilna-bazant","title":"Autodílna Bažant","category":"auto-doprava","subcategory":"autoservis","address":"Krhanice 122, 257 42"},{"id":"sv-auto-moto-tyno","type":"sluzby","slug":"auto-moto-tyno","title":"Auto-moto-tyno","category":"auto-doprava","subcategory":"autoservis","address":"Krhanice 189, 257 42"},{"id":"sv-autolakovna-standa","type":"sluzby","slug":"autolakovna-standa","title":"Autolakovna Standa","category":"auto-doprava","subcategory":"autoservis","address":"Krhanice 269, 257 42"},{"id":"sv-autodilna-cerny","type":"sluzby","slug":"autodilna-cerny-prosecnice","title":"Autodílna Černý","category":"auto-doprava","subcategory":"autoservis","address":"Prosečnice 1, 257 42"},{"id":"sv-tmcar-autoservis","type":"sluzby","slug":"tmcar-autoservis","title":"TMCAR autoservis","category":"auto-doprava","subcategory":"autoservis","address":"Krhanice 233, 257 42"},{"id":"sv-ad-mlejnek","type":"sluzby","slug":"autodoprava-mlejnek","title":"AD Mlejnek, autodoprava","category":"auto-doprava","address":"Krhanice 215, 257 42"},{"id":"sv-valaskova-ucetnictvi","type":"sluzby","slug":"sona-valaskova-ucetnictvi","title":"Soňa Valášková, účetnictví","category":"profesni-financni","subcategory":"ucetni","address":"Krhanice 277, 257 42"},{"id":"sv-brabec-yourwin","type":"sluzby","slug":"ludek-brabec-your-win","title":"Ing. Luděk Brabec, YOUR WIN","category":"profesni-financni","address":"Krhanice 165, 257 42"},{"id":"sv-koci-reality","type":"sluzby","slug":"lucie-koci-reality","title":"Specialista na Posázaví, Lucie Kočí","category":"profesni-financni","subcategory":"realitka","address":"Prosečnice ev.č. 240, 257 42"},{"id":"rm-itservis-petlach","type":"sluzby","slug":"it-servis-tomas-petlach","title":"IT servis Tomáš Petlach","category":"pro-domacnost-ostatni","subcategory":"it-web","lat":49.8557201,"lng":14.5591271,"address":"Krhanice 309, 257 42"},{"id":"sv-anfilov","type":"sluzby","slug":"anfilov-brand-design","title":"ANFILOV, brand design (Simon Anfilov)","category":"pro-domacnost-ostatni","subcategory":"it-web","address":"Krhanice 275, 257 42"},{"id":"sv-zita-nielsen","type":"sluzby","slug":"zita-nielsen-grafika","title":"Ing. Zita Nielsen, grafika a DTP","category":"pro-domacnost-ostatni","subcategory":"it-web","address":"Krhanice 181, 257 42"},{"id":"sv-foto-dostalkova","type":"sluzby","slug":"fotoatelier-magdalena-dostalkova","title":"Fotoateliér Magdaléna Dostálková","category":"pro-domacnost-ostatni","subcategory":"foto","address":"Krhanice 46, 257 42"},{"id":"sv-aafoto","type":"sluzby","slug":"aafoto","title":"AAFOTO","category":"pro-domacnost-ostatni","subcategory":"foto","address":"Krhanice 197, 257 42"},{"id":"sv-jan-balacek-hodiny","type":"sluzby","slug":"jan-balacek-vezni-hodiny","title":"Jan Baláček, opravy věžních hodin","category":"pro-domacnost-ostatni","subcategory":"hodinar","address":"Krhanice 36, 257 42"},{"id":"sv-smolik-vahy","type":"sluzby","slug":"vladimir-smolik-servis-vah","title":"Vladimír Smolík, servis vah","category":"pro-domacnost-ostatni","subcategory":"hodinar","address":"Krhanice ev.č. 70, 257 42"},{"id":"sv-jerman","type":"sluzby","slug":"jerman-sekani-travy","title":"JERMAN, s.r.o.","category":"pro-domacnost-ostatni","address":"Krhanice 197, 257 42"},{"id":"sv-koloros-production","type":"sluzby","slug":"koloros-production","title":"KOLOROS Production","category":"pro-domacnost-ostatni","subcategory":"svatebni-agentura","address":"Krhanice 235, 257 42"},{"id":"sv-fstage","type":"sluzby","slug":"fstage","title":"Fstage","category":"pro-domacnost-ostatni","subcategory":"svatebni-agentura","address":"Krhanice 184, 257 42"}]
